{
  "states": [
    {
      "name": "North Darfur",
      "arabic_name": "شمال دارفور",
      "pcode": "SD02",
      "affected": 122680,
      "displaced": null,
      "deaths": null,
      "injured": null,
      "homes_destroyed": null,
      "homes_damaged": null,
      "localities_count": null,
      "lat": 15.91233495,
      "lon": 25.49878428,
      "has_data": true
    },
    {
      "name": "Red Sea",
      "arabic_name": "البحر الأحمر",
      "pcode": "SD10",
      "affected": 75118,
      "displaced": null,
      "deaths": null,
      "injured": null,
      "homes_destroyed": null,
      "homes_damaged": null,
      "localities_count": null,
      "lat": 20.0739474,
      "lon": 35.41261521,
      "has_data": true
    },
    {
      "name": "Northern",
      "arabic_name": "الشمالية",
      "pcode": "SD17",
      "affected": 68164,
      "displaced": null,
      "deaths": 21,
      "injured": 103,
      "homes_destroyed": 4755,
      "homes_damaged": 8280,
      "localities_count": 7,
      "lat": 19.36562691,
      "lon": 29.89554898,
      "has_data": true
    },
    {
      "name": "South Darfur",
      "arabic_name": "جنوب دارفور",
      "pcode": "SD03",
      "affected": 62130,
      "displaced": null,
      "deaths": null,
      "injured": null,
      "homes_destroyed": 1311,
      "homes_damaged": 9402,
      "localities_count": 6,
      "lat": 10.8859108,
      "lon": 24.31318019,
      "has_data": true
    },
    {
      "name": "River Nile",
      "arabic_name": "نهر النيل",
      "pcode": "SD16",
      "affected": 58825,
      "displaced": null,
      "deaths": null,
      "injured": null,
      "homes_destroyed": null,
      "homes_damaged": null,
      "localities_count": null,
      "lat": 18.83467686,
      "lon": 33.12314746,
      "has_data": true
    },
    {
      "name": "Kassala",
      "arabic_name": "كسلا",
      "pcode": "SD11",
      "affected": 15100,
      "displaced": 5000,
      "deaths": 8,
      "injured": 7,
      "homes_destroyed": 664,
      "homes_damaged": 213,
      "localities_count": 8,
      "lat": 15.71040524,
      "lon": 35.5355862,
      "has_data": true
    },
    {
      "name": "Gedaref",
      "arabic_name": "القضارف",
      "pcode": "SD12",
      "affected": null,
      "displaced": null,
      "deaths": null,
      "injured": null,
      "homes_destroyed": null,
      "homes_damaged": null,
      "localities_count": null,
      "lat": 14.21029664,
      "lon": 35.02673717,
      "has_data": false
    },
    {
      "name": "Aj Jazirah",
      "arabic_name": "الجزيرة",
      "pcode": "SD15",
      "affected": null,
      "displaced": null,
      "deaths": null,
      "injured": null,
      "homes_destroyed": null,
      "homes_damaged": null,
      "localities_count": null,
      "lat": 14.5116272,
      "lon": 33.28351684,
      "has_data": false
    },
    {
      "name": "Khartoum",
      "arabic_name": "الخرطوم",
      "pcode": "SD01",
      "affected": null,
      "displaced": null,
      "deaths": null,
      "injured": null,
      "homes_destroyed": null,
      "homes_damaged": null,
      "localities_count": null,
      "lat": 15.91498652,
      "lon": 33.13522205,
      "has_data": false
    },
    {
      "name": "Central Darfur",
      "arabic_name": "وسط دارفور",
      "pcode": "SD06",
      "affected": 26200,
      "displaced": null,
      "deaths": null,
      "injured": null,
      "homes_destroyed": null,
      "homes_damaged": null,
      "localities_count": 4,
      "lat": 12.30838055,
      "lon": 23.23411106,
      "has_data": true
    },
    {
      "name": "West Darfur",
      "arabic_name": "غرب دارفور",
      "pcode": "SD04",
      "affected": 12000,
      "displaced": null,
      "deaths": null,
      "injured": null,
      "homes_destroyed": null,
      "homes_damaged": null,
      "localities_count": 3,
      "lat": 13.50261153,
      "lon": 22.71005876,
      "has_data": true
    },
    {
      "name": "Blue Nile",
      "arabic_name": "النيل الأزرق",
      "pcode": "SD08",
      "affected": null,
      "displaced": null,
      "deaths": null,
      "injured": null,
      "homes_destroyed": null,
      "homes_damaged": null,
      "localities_count": null,
      "lat": 11.02519187,
      "lon": 34.10191244,
      "has_data": false
    },
    {
      "name": "Sennar",
      "arabic_name": "سنار",
      "pcode": "SD14",
      "affected": null,
      "displaced": null,
      "deaths": null,
      "injured": null,
      "homes_destroyed": null,
      "homes_damaged": null,
      "localities_count": null,
      "lat": 12.92321074,
      "lon": 34.07481984,
      "has_data": false
    },
    {
      "name": "White Nile",
      "arabic_name": "النيل الأبيض",
      "pcode": "SD09",
      "affected": null,
      "displaced": null,
      "deaths": null,
      "injured": null,
      "homes_destroyed": null,
      "homes_damaged": null,
      "localities_count": null,
      "lat": 13.5895081,
      "lon": 32.35210132,
      "has_data": false
    },
    {
      "name": "North Kordofan",
      "arabic_name": "شمال كردفان",
      "pcode": "SD13",
      "affected": null,
      "displaced": null,
      "deaths": null,
      "injured": null,
      "homes_destroyed": null,
      "homes_damaged": null,
      "localities_count": null,
      "lat": 14.38938754,
      "lon": 29.43704807,
      "has_data": false
    },
    {
      "name": "South Kordofan",
      "arabic_name": "جنوب كردفان",
      "pcode": "SD07",
      "affected": null,
      "displaced": null,
      "deaths": null,
      "injured": null,
      "homes_destroyed": null,
      "homes_damaged": null,
      "localities_count": null,
      "lat": 11.22893046,
      "lon": 30.9139923,
      "has_data": false
    },
    {
      "name": "West Kordofan",
      "arabic_name": "غرب كردفان",
      "pcode": "SD18",
      "affected": null,
      "displaced": null,
      "deaths": null,
      "injured": null,
      "homes_destroyed": null,
      "homes_damaged": null,
      "localities_count": null,
      "lat": 11.86855138,
      "lon": 28.22106087,
      "has_data": false
    },
    {
      "name": "East Darfur",
      "arabic_name": "شرق دارفور",
      "pcode": "SD05",
      "affected": null,
      "displaced": null,
      "deaths": null,
      "injured": null,
      "homes_destroyed": null,
      "homes_damaged": null,
      "localities_count": null,
      "lat": 11.22988573,
      "lon": 26.39722982,
      "has_data": false
    }
  ]
}
